{"type":"FeatureCollection","features":[{"type":"Feature","geometry":{"type":"Point","coordinates":[121.5354431,25.0125938,0]},"properties":{"name":"墨洋拉麵","Type":"拉麵","Price":"$$","Distance":3}},{"type":"Feature","geometry":{"type":"Point","coordinates":[121.5355682,25.0123138,0]},"properties":{"name":"順園小館","Type":"其他","Price":"$$","Distance":3}},{"type":"Feature","geometry":{"type":"Point","coordinates":[121.5352812,25.0123615,0]},"properties":{"name":"鍋in百元風味火鍋","Type":"火鍋","Price":"$$","Distance":3}},{"type":"Feature","geometry":{"type":"Point","coordinates":[121.5356132,25.0121409,0]},"properties":{"name":"大埔鐵板燒 公館店","Type":"鐵板燒","Price":"$$","Distance":3}},{"type":"Feature","geometry":{"type":"Point","coordinates":[121.5354306,25.0121889,0]},"properties":{"name":"小飯館兒","Type":"韓式","Price":"$$","Distance":3}},{"type":"Feature","geometry":{"type":"Point","coordinates":[121.5354362,25.0130226,0]},"properties":{"name":"山嵐拉麵 公館店","Type":"拉麵","Price":"$$","Distance":3}},{"type":"Feature","geometry":{"type":"Point","coordinates":[121.5340845,25.0132988,0]},"properties":{"name":"力量拉麵（公館店）","Type":"拉麵","Price":"$$","Distance":3}},{"type":"Feature","geometry":{"type":"Point","coordinates":[121.5344604,25.0139123,0]},"properties":{"name":"大家素食","Type":"素食","Price":"$","Distance":3}},{"type":"Feature","geometry":{"type":"Point","coordinates":[121.5343411,25.0140624,0]},"properties":{"name":"無鍋不樂","Type":"火鍋","Price":"$$","Distance":3}},{"type":"Feature","geometry":{"type":"Point","coordinates":[121.5338983,25.0143712,0]},"properties":{"name":"大盛豬排專門店","Type":"日式","Price":"$$","Distance":3}},{"type":"Feature","geometry":{"type":"Point","coordinates":[121.5337102,25.0147594,0]},"properties":{"name":"Miss Energy 能量小姐 台北公館店","Type":"其他","Price":"$","Distance":3}},{"type":"Feature","geometry":{"type":"Point","coordinates":[121.5328684,25.0147847,0]},"properties":{"name":"麻辣巴蕾正宗重慶酸辣粉","Type":"其他","Price":"$$","Distance":3}},{"type":"Feature","geometry":{"type":"Point","coordinates":[121.5328707,25.0149813,0]},"properties":{"name":"YU POKÉ-夏威夷生魚飯","Type":"其他","Price":"$$","Distance":3}},{"type":"Feature","geometry":{"type":"Point","coordinates":[121.53403,25.013322,0]},"properties":{"name":"JJ's POKE & CAFE 鮮魚沙拉飯","Type":"其他","Price":"$$","Distance":3}},{"type":"Feature","geometry":{"type":"Point","coordinates":[121.5330949,25.0141486,0]},"properties":{"name":"鷹流東京豚骨拉麵-極匠","Type":"拉麵","Price":"$$","Distance":3}},{"type":"Feature","geometry":{"type":"Point","coordinates":[121.5323408,25.0155113,0]},"properties":{"name":"12MINI經典即享鍋-捷運公館店","Type":"火鍋","Price":"$$","Distance":3}},{"type":"Feature","geometry":{"type":"Point","coordinates":[121.531843,25.015572,0]},"properties":{"name":"辛殿麻辣鍋-公館店","Type":"火鍋","Price":"$$$","Distance":3}},{"type":"Feature","geometry":{"type":"Point","coordinates":[121.5318107,25.0157941,0]},"properties":{"name":"赤神日式豬排公館店","Type":"日式","Price":"$$","Distance":3}},{"type":"Feature","geometry":{"type":"Point","coordinates":[121.5322458,25.0156403,0]},"properties":{"name":"戰醬燒肉/台北美食/台北燒肉/台北吃到飽/台北燒肉吃到飽/公館美食/公館吃到飽","Type":"燒烤","Price":"$$$","Distance":3}},{"type":"Feature","geometry":{"type":"Point","coordinates":[121.5315781,25.0157413,0]},"properties":{"name":"貳樓餐廳 Second Floor Cafe 公館店","Type":"其他","Price":"$$$","Distance":3}},{"type":"Feature","geometry":{"type":"Point","coordinates":[121.5328968,25.0157547,0]},"properties":{"name":"十二巷拉麵","Type":"拉麵","Price":"$$","Distance":3}},{"type":"Feature","geometry":{"type":"Point","coordinates":[121.5431436,25.0221613,0]},"properties":{"name":"壹之穴沾麵專門店","Type":"拉麵","Price":"$$","Distance":3}},{"type":"Feature","geometry":{"type":"Point","coordinates":[121.542893,25.021838,0]},"properties":{"name":"源士林粥品（台大店）","Type":"其他","Price":"$","Distance":3}},{"type":"Feature","geometry":{"type":"Point","coordinates":[121.5429024,25.0218402,0]},"properties":{"name":"叮叮食堂","Type":"其他","Price":"$","Distance":3}},{"type":"Feature","geometry":{"type":"Point","coordinates":[121.5428308,25.0247477,0]},"properties":{"name":"裸湯拉麵·雞白湯","Type":"拉麵","Price":"$$","Distance":3}},{"type":"Feature","geometry":{"type":"Point","coordinates":[121.542894,25.0224269,0]},"properties":{"name":"笑嘻嘻港式現炒飯麵","Type":"其他","Price":"$","Distance":3}},{"type":"Feature","geometry":{"type":"Point","coordinates":[121.5428899,25.022344,0]},"properties":{"name":"憶馬當鮮 馬來西亞風味料理","Type":"異國","Price":"$","Distance":3}},{"type":"Feature","geometry":{"type":"Point","coordinates":[121.5435367,25.0221749,0]},"properties":{"name":"池先生kopitiam(大安店）","Type":"異國","Price":"$","Distance":3}},{"type":"Feature","geometry":{"type":"Point","coordinates":[121.5333658,25.019571,0]},"properties":{"name":"溏老鴨平價小火鍋","Type":"火鍋","Price":"$$","Distance":3}},{"type":"Feature","geometry":{"type":"Point","coordinates":[121.532586,25.017334,0]},"properties":{"name":"七里亭","Type":"其他","Price":"$","Distance":3}},{"type":"Feature","geometry":{"type":"Point","coordinates":[121.5327721,25.0191295,0]},"properties":{"name":"好想吃冰 かき氷/日式蔬食 台大公館店（公館美食.公館素食.日式素食）","Type":"日式","Price":"$$","Distance":3}},{"type":"Feature","geometry":{"type":"Point","coordinates":[121.5334205,25.019691,0]},"properties":{"name":"NoName無名咖哩 台大店","Type":"咖哩","Price":"$$","Distance":3}},{"type":"Feature","geometry":{"type":"Point","coordinates":[121.532867,25.0198093,0]},"properties":{"name":"柒食貳","Type":"其他","Price":"$","Distance":3}},{"type":"Feature","geometry":{"type":"Point","coordinates":[121.532967,25.019999,0]},"properties":{"name":"稻咖哩","Type":"咖哩","Price":"$$","Distance":3}},{"type":"Feature","geometry":{"type":"Point","coordinates":[121.5374249,25.0185235,0]},"properties":{"name":"台大小福廣場","Type":"其他","Price":"$","Distance":2}},{"type":"Feature","geometry":{"type":"Point","coordinates":[121.5401916,25.0180274,0]},"properties":{"name":"活大餐廳","Type":"其他","Price":"$","Distance":2}},{"type":"Feature","geometry":{"type":"Point","coordinates":[121.5428092,25.013856,0]},"properties":{"name":"台科大第一學生餐廳","Type":"其他","Price":"$","Distance":2}},{"type":"Feature","geometry":{"type":"Point","coordinates":[121.5411959,25.0120254,0]},"properties":{"name":"麗陽商場-台科大第三學生餐廳","Type":"其他","Price":"$","Distance":2}},{"type":"Feature","geometry":{"type":"Point","coordinates":[121.544724,25.0159743,0]},"properties":{"name":"男一快餐","Type":"其他","Price":"$","Distance":1}},{"type":"Feature","geometry":{"type":"Point","coordinates":[121.5394752,25.0195299,0]},"properties":{"name":"女九餐廳","Type":"其他","Price":"$","Distance":2}}]}